{
    "type": "FeatureCollection",
    "name": "Irish_Towns_Sample",
    "crs": { "type": "name", "properties": { "name": "EPSG:4326" } },
    "features": [
      { "type": "Feature", "properties": { "ENGLISH": "Dublin", "COUNTY": "Dublin", "TOWN_TYPE": "Urban", "POPULATION": 1173179, "AREA": 11500000 }, "geometry": { "type": "Point", "coordinates": [-6.2603, 53.3498] } },
      { "type": "Feature", "properties": { "ENGLISH": "Cork", "COUNTY": "Cork", "TOWN_TYPE": "Urban", "POPULATION": 222333, "AREA": 9600000 }, "geometry": { "type": "Point", "coordinates": [-8.4863, 51.8985] } },
      { "type": "Feature", "properties": { "ENGLISH": "Limerick", "COUNTY": "Limerick", "TOWN_TYPE": "Urban", "POPULATION": 94192, "AREA": 6400000 }, "geometry": { "type": "Point", "coordinates": [-8.6238, 52.668] } },
      { "type": "Feature", "properties": { "ENGLISH": "Galway", "COUNTY": "Galway", "TOWN_TYPE": "Historic", "POPULATION": 79934, "AREA": 5200000 }, "geometry": { "type": "Point", "coordinates": [-9.0489, 53.2707] } },
      { "type": "Feature", "properties": { "ENGLISH": "Waterford", "COUNTY": "Waterford", "TOWN_TYPE": "Historic", "POPULATION": 53804, "AREA": 4100000 }, "geometry": { "type": "Point", "coordinates": [-7.1101, 52.2593] } },
      { "type": "Feature", "properties": { "ENGLISH": "Kilkenny", "COUNTY": "Kilkenny", "TOWN_TYPE": "Historic", "POPULATION": 26985, "AREA": 2700000 }, "geometry": { "type": "Point", "coordinates": [-7.2526, 52.6541] } },
      { "type": "Feature", "properties": { "ENGLISH": "Sligo", "COUNTY": "Sligo", "TOWN_TYPE": "Urban", "POPULATION": 20400, "AREA": 2500000 }, "geometry": { "type": "Point", "coordinates": [-8.4756, 54.2697] } },
      { "type": "Feature", "properties": { "ENGLISH": "Tralee", "COUNTY": "Kerry", "TOWN_TYPE": "Urban", "POPULATION": 23691, "AREA": 2600000 }, "geometry": { "type": "Point", "coordinates": [-9.6981, 52.2716] } },
      { "type": "Feature", "properties": { "ENGLISH": "Wexford", "COUNTY": "Wexford", "TOWN_TYPE": "Historic", "POPULATION": 20579, "AREA": 2100000 }, "geometry": { "type": "Point", "coordinates": [-6.4575, 52.3369] } },
      { "type": "Feature", "properties": { "ENGLISH": "Ennis", "COUNTY": "Clare", "TOWN_TYPE": "Urban", "POPULATION": 25400, "AREA": 2300000 }, "geometry": { "type": "Point", "coordinates": [-8.9864, 52.8436] } },
      { "type": "Feature", "properties": { "ENGLISH": "Navan", "COUNTY": "Meath", "TOWN_TYPE": "Urban", "POPULATION": 33000, "AREA": 3200000 }, "geometry": { "type": "Point", "coordinates": [-6.6819, 53.6528] } },
      { "type": "Feature", "properties": { "ENGLISH": "Naas", "COUNTY": "Kildare", "TOWN_TYPE": "Urban", "POPULATION": 21400, "AREA": 1800000 }, "geometry": { "type": "Point", "coordinates": [-6.666, 53.215] } },
      { "type": "Feature", "properties": { "ENGLISH": "Carlow", "COUNTY": "Carlow", "TOWN_TYPE": "Urban", "POPULATION": 24172, "AREA": 1900000 }, "geometry": { "type": "Point", "coordinates": [-6.9311, 52.8351] } },
      { "type": "Feature", "properties": { "ENGLISH": "Longford", "COUNTY": "Longford", "TOWN_TYPE": "Village", "POPULATION": 10400, "AREA": 1200000 }, "geometry": { "type": "Point", "coordinates": [-7.7997, 53.7275] } },
      { "type": "Feature", "properties": { "ENGLISH": "Roscommon", "COUNTY": "Roscommon", "TOWN_TYPE": "Village", "POPULATION": 6400, "AREA": 900000 }, "geometry": { "type": "Point", "coordinates": [-8.1833, 53.6333] } },
      { "type": "Feature", "properties": { "ENGLISH": "Tullamore", "COUNTY": "Offaly", "TOWN_TYPE": "Urban", "POPULATION": 14500, "AREA": 1700000 }, "geometry": { "type": "Point", "coordinates": [-7.4923, 53.2738] } },
      { "type": "Feature", "properties": { "ENGLISH": "Birr", "COUNTY": "Offaly", "TOWN_TYPE": "Historic", "POPULATION": 5600, "AREA": 750000 }, "geometry": { "type": "Point", "coordinates": [-7.9, 53.1] } },
      { "type": "Feature", "properties": { "ENGLISH": "Clonmel", "COUNTY": "Tipperary", "TOWN_TYPE": "Urban", "POPULATION": 17600, "AREA": 2100000 }, "geometry": { "type": "Point", "coordinates": [-7.7039, 52.355] } },
      { "type": "Feature", "properties": { "ENGLISH": "Nenagh", "COUNTY": "Tipperary", "TOWN_TYPE": "Village", "POPULATION": 8600, "AREA": 1200000 }, "geometry": { "type": "Point", "coordinates": [-8.196, 52.8619] } },
      { "type": "Feature", "properties": { "ENGLISH": "Cashel", "COUNTY": "Tipperary", "TOWN_TYPE": "Historic", "POPULATION": 4500, "AREA": 800000 }, "geometry": { "type": "Point", "coordinates": [-7.89, 52.515] } },
      { "type": "Feature", "properties": { "ENGLISH": "Trim", "COUNTY": "Meath", "TOWN_TYPE": "Historic", "POPULATION": 9000, "AREA": 1100000 }, "geometry": { "type": "Point", "coordinates": [-6.788, 53.555] } },
      { "type": "Feature", "properties": { "ENGLISH": "Mullingar", "COUNTY": "Westmeath", "TOWN_TYPE": "Urban", "POPULATION": 20900, "AREA": 2000000 }, "geometry": { "type": "Point", "coordinates": [-7.3371, 53.525] } },
      { "type": "Feature", "properties": { "ENGLISH": "Athlone", "COUNTY": "Westmeath", "TOWN_TYPE": "Urban", "POPULATION": 21100, "AREA": 1900000 }, "geometry": { "type": "Point", "coordinates": [-7.94, 53.4239] } },
      { "type": "Feature", "properties": { "ENGLISH": "Portlaoise", "COUNTY": "Laois", "TOWN_TYPE": "Urban", "POPULATION": 23900, "AREA": 2300000 }, "geometry": { "type": "Point", "coordinates": [-7.3028, 53.0328] } },
      { "type": "Feature", "properties": { "ENGLISH": "Monaghan", "COUNTY": "Monaghan", "TOWN_TYPE": "Urban", "POPULATION": 7900, "AREA": 900000 }, "geometry": { "type": "Point", "coordinates": [-6.969, 54.25] } },
      { "type": "Feature", "properties": { "ENGLISH": "Letterkenny", "COUNTY": "Donegal", "TOWN_TYPE": "Urban", "POPULATION": 19600, "AREA": 2100000 }, "geometry": { "type": "Point", "coordinates": [-7.7315, 54.95] } },
      { "type": "Feature", "properties": { "ENGLISH": "Bundoran", "COUNTY": "Donegal", "TOWN_TYPE": "Village", "POPULATION": 2800, "AREA": 500000 }, "geometry": { "type": "Point", "coordinates": [-8.283, 54.476] } },
      { "type": "Feature", "properties": { "ENGLISH": "Killarney", "COUNTY": "Kerry", "TOWN_TYPE": "Historic", "POPULATION": 14500, "AREA": 1500000 }, "geometry": { "type": "Point", "coordinates": [-9.514, 52.059] } },
      { "type": "Feature", "properties": { "ENGLISH": "Dingle", "COUNTY": "Kerry", "TOWN_TYPE": "Village", "POPULATION": 2050, "AREA": 400000 }, "geometry": { "type": "Point", "coordinates": [-10.27, 52.14] } },
      { "type": "Feature", "properties": { "ENGLISH": "Bantry", "COUNTY": "Cork", "TOWN_TYPE": "Village", "POPULATION": 2700, "AREA": 480000 }, "geometry": { "type": "Point", "coordinates": [-9.45, 51.68] } },
      { "type": "Feature", "properties": { "ENGLISH": "Clifden", "COUNTY": "Galway", "TOWN_TYPE": "Village", "POPULATION": 1700, "AREA": 350000 }, "geometry": { "type": "Point", "coordinates": [-10.02, 53.49] } },
      { "type": "Feature", "properties": { "ENGLISH": "Ballina", "COUNTY": "Mayo", "TOWN_TYPE": "Urban", "POPULATION": 10600, "AREA": 1200000 }, "geometry": { "type": "Point", "coordinates": [-9.154, 54.11] } },
      { "type": "Feature", "properties": { "ENGLISH": "Castlebar", "COUNTY": "Mayo", "TOWN_TYPE": "Urban", "POPULATION": 12500, "AREA": 1300000 }, "geometry": { "type": "Point", "coordinates": [-9.3, 53.85] } },
      { "type": "Feature", "properties": { "ENGLISH": "Ballinasloe", "COUNTY": "Galway", "TOWN_TYPE": "Urban", "POPULATION": 7600, "AREA": 900000 }, "geometry": { "type": "Point", "coordinates": [-8.22, 53.33] } },
      { "type": "Feature", "properties": { "ENGLISH": "Tuam", "COUNTY": "Galway", "TOWN_TYPE": "Village", "POPULATION": 8800, "AREA": 1000000 }, "geometry": { "type": "Point", "coordinates": [-8.85, 53.52] } },
      { "type": "Feature", "properties": { "ENGLISH": "Birr", "COUNTY": "Offaly", "TOWN_TYPE": "Historic", "POPULATION": 5600, "AREA": 750000 }, "geometry": { "type": "Point", "coordinates": [-7.9, 53.1] } },
      { "type": "Feature", "properties": { "ENGLISH": "Cahir", "COUNTY": "Tipperary", "TOWN_TYPE": "Village", "POPULATION": 3700, "AREA": 620000 }, "geometry": { "type": "Point", "coordinates": [-7.92, 52.37] } },
      { "type": "Feature", "properties": { "ENGLISH": "Carrick-on-Shannon", "COUNTY": "Leitrim", "TOWN_TYPE": "Village", "POPULATION": 5200, "AREA": 720000 }, "geometry": { "type": "Point", "coordinates": [-8.09, 53.94] } },
      { "type": "Feature", "properties": { "ENGLISH": "Westport", "COUNTY": "Mayo", "TOWN_TYPE": "Historic", "POPULATION": 6300, "AREA": 800000 }, "geometry": { "type": "Point", "coordinates": [-9.52, 53.8] } },
      { "type": "Feature", "properties": { "ENGLISH": "Listowel", "COUNTY": "Kerry", "TOWN_TYPE": "Village", "POPULATION": 4820, "AREA": 700000 }, "geometry": { "type": "Point", "coordinates": [-9.49, 52.45] } },
      { "type": "Feature", "properties": { "ENGLISH": "Arklow", "COUNTY": "Wexford", "TOWN_TYPE": "Urban", "POPULATION": 13800, "AREA": 1600000 }, "geometry": { "type": "Point", "coordinates": [-6.14, 52.8] } },
      { "type": "Feature", "properties": { "ENGLISH": "Bray", "COUNTY": "Wicklow", "TOWN_TYPE": "Urban", "POPULATION": 33300, "AREA": 2800000 }, "geometry": { "type": "Point", "coordinates": [-6.11, 53.2] } },
      { "type": "Feature", "properties": { "ENGLISH": "Greystones", "COUNTY": "Wicklow", "TOWN_TYPE": "Urban", "POPULATION": 18500, "AREA": 1700000 }, "geometry": { "type": "Point", "coordinates": [-6.06, 53.15] } },
      { "type": "Feature", "properties": { "ENGLISH": "Gorey", "COUNTY": "Wexford", "TOWN_TYPE": "Village", "POPULATION": 10800, "AREA": 1000000 }, "geometry": { "type": "Point", "coordinates": [-6.29, 52.67] } },
      { "type": "Feature", "properties": { "ENGLISH": "Dundalk", "COUNTY": "Louth", "TOWN_TYPE": "Urban", "POPULATION": 39340, "AREA": 3500000 }, "geometry": { "type": "Point", "coordinates": [-6.4, 54.0] } },
      { "type": "Feature", "properties": { "ENGLISH": "Drogheda", "COUNTY": "Louth", "TOWN_TYPE": "Urban", "POPULATION": 40800, "AREA": 3400000 }, "geometry": { "type": "Point", "coordinates": [-6.35, 53.72] } },
      { "type": "Feature", "properties": { "ENGLISH": "Balbriggan", "COUNTY": "Dublin", "TOWN_TYPE": "Village", "POPULATION": 25700, "AREA": 2100000 }, "geometry": { "type": "Point", "coordinates": [-6.18, 53.61] } }
    ]
  }
  